{
"type": "FeatureCollection",
"name": "Fermate_TPL",
"crs": { "type": "name", "properties": { "name": "urn:ogc:def:crs:OGC:1.3:CRS84" } },
"features": [
{ "type": "Feature", "properties": { "fid": 1.0, "NOME": "FERMATA 001", "INDIRIZZO": "Via Fermi scuola elementare (ex Bice)", "LAT": 40.674825, "LON": 16.58205556 }, "geometry": { "type": "Point", "coordinates": [ 16.58205556, 40.674825 ] } },
{ "type": "Feature", "properties": { "fid": 2.0, "NOME": "FERMATA 002", "INDIRIZZO": "Via Fermi", "LAT": 40.67611111, "LON": 16.58254167 }, "geometry": { "type": "Point", "coordinates": [ 16.58254167, 40.67611111 ] } },
{ "type": "Feature", "properties": { "fid": 3.0, "NOME": "FERMATA 003", "INDIRIZZO": "Via Mattei Farmacia", "LAT": 40.67882778, "LON": 16.58083056 }, "geometry": { "type": "Point", "coordinates": [ 16.58083056, 40.67882778 ] } },
{ "type": "Feature", "properties": { "fid": 4.0, "NOME": "FERMATA 004", "INDIRIZZO": "Via Sallustio piazza", "LAT": 40.67985833, "LON": 16.57606667 }, "geometry": { "type": "Point", "coordinates": [ 16.57606667, 40.67985833 ] } },
{ "type": "Feature", "properties": { "fid": 5.0, "NOME": "FERMATA 005", "INDIRIZZO": "Via Sallustio (retro Circo)", "LAT": 40.68128889, "LON": 16.57636111 }, "geometry": { "type": "Point", "coordinates": [ 16.57636111, 40.68128889 ] } },
{ "type": "Feature", "properties": { "fid": 6.0, "NOME": "FERMATA 006", "INDIRIZZO": "Via Gravina Snam Caseificio", "LAT": 40.68165556, "LON": 16.5806 }, "geometry": { "type": "Point", "coordinates": [ 16.5806, 40.68165556 ] } },
{ "type": "Feature", "properties": { "fid": 7.0, "NOME": "FERMATA 007", "INDIRIZZO": "Via dei Dauni Brancaccio", "LAT": 40.68266389, "LON": 16.58182222 }, "geometry": { "type": "Point", "coordinates": [ 16.58182222, 40.68266389 ] } },
{ "type": "Feature", "properties": { "fid": 8.0, "NOME": "FERMATA 008", "INDIRIZZO": "Via dei Peucezi civico 99", "LAT": 40.68378333, "LON": 16.58464722 }, "geometry": { "type": "Point", "coordinates": [ 16.58464722, 40.68378333 ] } },
{ "type": "Feature", "properties": { "fid": 9.0, "NOME": "FERMATA 009", "INDIRIZZO": "Via dei Peucezi civico 93", "LAT": 40.68255, "LON": 16.58562 }, "geometry": { "type": "Point", "coordinates": [ 16.58562, 40.68255 ] } },
{ "type": "Feature", "properties": { "fid": 10.0, "NOME": "FERMATA 010", "INDIRIZZO": "Via dei Peucezi fine 4 corsie", "LAT": 40.68134167, "LON": 16.587075 }, "geometry": { "type": "Point", "coordinates": [ 16.587075, 40.68134167 ] } },
{ "type": "Feature", "properties": { "fid": 11.0, "NOME": "FERMATA 011", "INDIRIZZO": "Via dei Peucezi Antincendio Bar", "LAT": 40.68007778, "LON": 16.58828611 }, "geometry": { "type": "Point", "coordinates": [ 16.58828611, 40.68007778 ] } },
{ "type": "Feature", "properties": { "fid": 12.0, "NOME": "FERMATA 012", "INDIRIZZO": "Via Nazionale fronte Stazione Villa Longo", "LAT": 40.67851667, "LON": 16.59035833 }, "geometry": { "type": "Point", "coordinates": [ 16.59035833, 40.67851667 ] } },
{ "type": "Feature", "properties": { "fid": 13.0, "NOME": "FERMATA 013", "INDIRIZZO": "Via Nazionale civico 95", "LAT": 40.67718333, "LON": 16.59226389 }, "geometry": { "type": "Point", "coordinates": [ 16.59226389, 40.67718333 ] } },
{ "type": "Feature", "properties": { "fid": 14.0, "NOME": "FERMATA 014", "INDIRIZZO": "Via Nazionale civico 198 Edicola", "LAT": 40.67618611, "LON": 16.5943 }, "geometry": { "type": "Point", "coordinates": [ 16.5943, 40.67618611 ] } },
{ "type": "Feature", "properties": { "fid": 15.0, "NOME": "FERMATA 015", "INDIRIZZO": "Via Nazionale fronte Farmacia Motta Uva", "LAT": 40.67460833, "LON": 16.59763333 }, "geometry": { "type": "Point", "coordinates": [ 16.59763333, 40.67460833 ] } },
{ "type": "Feature", "properties": { "fid": 16.0, "NOME": "FERMATA 016", "INDIRIZZO": "Via Nazionale Civico 33", "LAT": 40.67357222, "LON": 16.59991389 }, "geometry": { "type": "Point", "coordinates": [ 16.59991389, 40.67357222 ] } },
{ "type": "Feature", "properties": { "fid": 17.0, "NOME": "FERMATA 017", "INDIRIZZO": "Via Annunziatella Civico 153 La Murrina", "LAT": 40.67257222, "LON": 16.60205278 }, "geometry": { "type": "Point", "coordinates": [ 16.60205278, 40.67257222 ] } },
{ "type": "Feature", "properties": { "fid": 18.0, "NOME": "FERMATA 018", "INDIRIZZO": "Via Annunziatella Civico 81", "LAT": 40.67175556, "LON": 16.60405278 }, "geometry": { "type": "Point", "coordinates": [ 16.60405278, 40.67175556 ] } },
{ "type": "Feature", "properties": { "fid": 19.0, "NOME": "FERMATA 019", "INDIRIZZO": "Via Annunziatella Civico 5 Edicola", "LAT": 40.67058333, "LON": 16.6057 }, "geometry": { "type": "Point", "coordinates": [ 16.6057, 40.67058333 ] } },
{ "type": "Feature", "properties": { "fid": 20.0, "NOME": "FERMATA 020", "INDIRIZZO": "Via Lucana 4 Tab. Scasciamacchia", "LAT": 40.66838889, "LON": 16.60575278 }, "geometry": { "type": "Point", "coordinates": [ 16.60575278, 40.66838889 ] } },
{ "type": "Feature", "properties": { "fid": 21.0, "NOME": "FERMATA 021-022", "INDIRIZZO": "Via Lucana boschetto", "LAT": 40.66508, "LON": 16.606712 }, "geometry": { "type": "Point", "coordinates": [ 16.606712, 40.66508 ] } },
{ "type": "Feature", "properties": { "fid": 22.0, "NOME": "FERMATA 023", "INDIRIZZO": "Via Lucana Civico 144 (Inail)", "LAT": 40.66438333, "LON": 16.60770278 }, "geometry": { "type": "Point", "coordinates": [ 16.60770278, 40.66438333 ] } },
{ "type": "Feature", "properties": { "fid": 23.0, "NOME": "FERMATA 024", "INDIRIZZO": "Via Lucana Civico 174", "LAT": 40.66346667, "LON": 16.60818611 }, "geometry": { "type": "Point", "coordinates": [ 16.60818611, 40.663466669999984 ] } },
{ "type": "Feature", "properties": { "fid": 24.0, "NOME": "FERMATA 025", "INDIRIZZO": "Via Lucana Civico 206 Provincia", "LAT": 40.66181667, "LON": 16.60975278 }, "geometry": { "type": "Point", "coordinates": [ 16.60975278, 40.661816669999986 ] } },
{ "type": "Feature", "properties": { "fid": 25.0, "NOME": "FERMATA 026", "INDIRIZZO": "Via Lucana Civico 280 Chiesa S. Rocco", "LAT": 40.66036389, "LON": 16.61229444 }, "geometry": { "type": "Point", "coordinates": [ 16.61229444, 40.66036389 ] } },
{ "type": "Feature", "properties": { "fid": 26.0, "NOME": "FERMATA 027", "INDIRIZZO": "Via Lucana fronte civico 299", "LAT": 40.658978, "LON": 16.614683 }, "geometry": { "type": "Point", "coordinates": [ 16.614683, 40.658978 ] } },
{ "type": "Feature", "properties": { "fid": 27.0, "NOME": "FERMATA 028", "INDIRIZZO": "Via Lucana Civico 308 Milizia", "LAT": 40.6572, "LON": 16.61555 }, "geometry": { "type": "Point", "coordinates": [ 16.61555, 40.6572 ] } },
{ "type": "Feature", "properties": { "fid": 28.0, "NOME": "FERMATA 029", "INDIRIZZO": "Via Cappuccini. incr. Rec. Cappuccini", "LAT": 40.654255, "LON": 16.617529 }, "geometry": { "type": "Point", "coordinates": [ 16.617529, 40.654255 ] } },
{ "type": "Feature", "properties": { "fid": 29.0, "NOME": "FERMATA 030", "INDIRIZZO": "Via Cappuccini; civico 60", "LAT": 40.65244444, "LON": 16.6185 }, "geometry": { "type": "Point", "coordinates": [ 16.6185, 40.65244444 ] } },
{ "type": "Feature", "properties": { "fid": 30.0, "NOME": "FERMATA 031", "INDIRIZZO": "Via Guida. civico 16", "LAT": 40.64880556, "LON": 16.61989444 }, "geometry": { "type": "Point", "coordinates": [ 16.61989444, 40.648805559999985 ] } },
{ "type": "Feature", "properties": { "fid": 31.0, "NOME": "FERMATA 032", "INDIRIZZO": "Via Frangione. civico 4", "LAT": 40.6474, "LON": 16.62161111 }, "geometry": { "type": "Point", "coordinates": [ 16.62161111, 40.6474 ] } },
{ "type": "Feature", "properties": { "fid": 32.0, "NOME": "FERMATA 033", "INDIRIZZO": "Via Farina. civico 42", "LAT": 40.64628056, "LON": 16.62319167 }, "geometry": { "type": "Point", "coordinates": [ 16.62319167, 40.64628056 ] } },
{ "type": "Feature", "properties": { "fid": 33.0, "NOME": "FERMATA 034", "INDIRIZZO": "Via Farina. civico 54", "LAT": 40.64555, "LON": 16.62229722 }, "geometry": { "type": "Point", "coordinates": [ 16.62229722, 40.64555 ] } },
{ "type": "Feature", "properties": { "fid": 34.0, "NOME": "FERMATA 035", "INDIRIZZO": "Via Farina. civico 72", "LAT": 40.64625556, "LON": 16.61997778 }, "geometry": { "type": "Point", "coordinates": [ 16.61997778, 40.64625556 ] } },
{ "type": "Feature", "properties": { "fid": 35.0, "NOME": "FERMATA 036", "INDIRIZZO": "Via Farina. civico 92", "LAT": 40.64838333, "LON": 16.61875278 }, "geometry": { "type": "Point", "coordinates": [ 16.61875278, 40.64838333 ] } },
{ "type": "Feature", "properties": { "fid": 36.0, "NOME": "FERMATA 037", "INDIRIZZO": "Via Frangione. Asm Capolinea", "LAT": 40.64980556, "LON": 16.61783611 }, "geometry": { "type": "Point", "coordinates": [ 16.61783611, 40.64980556 ] } },
{ "type": "Feature", "properties": { "fid": 37.0, "NOME": "FERMATA 038", "INDIRIZZO": "Via Montescaglioso fronte distributore Q8", "LAT": 40.65215, "LON": 16.61658611 }, "geometry": { "type": "Point", "coordinates": [ 16.61658611, 40.65215 ] } },
{ "type": "Feature", "properties": { "fid": 38.0, "NOME": "FERMATA 039", "INDIRIZZO": "Via Lucana Civico 308 Milizia", "LAT": 40.657167, "LON": 16.615791 }, "geometry": { "type": "Point", "coordinates": [ 16.615791, 40.657167 ] } },
{ "type": "Feature", "properties": { "fid": 39.0, "NOME": "FERMATA 040", "INDIRIZZO": "Via Lucana Civico 295", "LAT": 40.65919722, "LON": 16.61459444 }, "geometry": { "type": "Point", "coordinates": [ 16.61459444, 40.65919722 ] } },
{ "type": "Feature", "properties": { "fid": 40.0, "NOME": "FERMATA 041", "INDIRIZZO": "Via Lucana Civico 280 Chiesa S. Rocco", "LAT": 40.66044444, "LON": 16.61231389 }, "geometry": { "type": "Point", "coordinates": [ 16.61231389, 40.66044444 ] } },
{ "type": "Feature", "properties": { "fid": 41.0, "NOME": "FERMATA 042", "INDIRIZZO": "Via Lucana Civico 206 Provincia", "LAT": 40.66189167, "LON": 16.60978611 }, "geometry": { "type": "Point", "coordinates": [ 16.60978611, 40.66189167 ] } },
{ "type": "Feature", "properties": { "fid": 42.0, "NOME": "FERMATA 043", "INDIRIZZO": "Via Lucana Civico 163", "LAT": 40.663338, "LON": 16.608477 }, "geometry": { "type": "Point", "coordinates": [ 16.608477, 40.663338 ] } },
{ "type": "Feature", "properties": { "fid": 43.0, "NOME": "FERMATA 044", "INDIRIZZO": "Via Lucana Civico 149", "LAT": 40.66430833, "LON": 16.60781944 }, "geometry": { "type": "Point", "coordinates": [ 16.60781944, 40.66430833 ] } },
{ "type": "Feature", "properties": { "fid": 44.0, "NOME": "FERMATA 045", "INDIRIZZO": "Via Lucana Civico 71 (ex Bar Antico)", "LAT": 40.66601389, "LON": 16.60519444 }, "geometry": { "type": "Point", "coordinates": [ 16.60519444, 40.66601389 ] } },
{ "type": "Feature", "properties": { "fid": 45.0, "NOME": "FERMATA 046", "INDIRIZZO": "Via Lucana 19 Cinema Duni", "LAT": 40.66794444, "LON": 16.60526667 }, "geometry": { "type": "Point", "coordinates": [ 16.60526667, 40.66794444 ] } },
{ "type": "Feature", "properties": { "fid": 46.0, "NOME": "FERMATA 047", "INDIRIZZO": "Via Annunziatella Civico 8", "LAT": 40.67073056, "LON": 16.60565833 }, "geometry": { "type": "Point", "coordinates": [ 16.60565833, 40.67073056 ] } },
{ "type": "Feature", "properties": { "fid": 47.0, "NOME": "FERMATA 048", "INDIRIZZO": "Via Annunziatella civico 64 Consorzio Bonif.", "LAT": 40.67189167, "LON": 16.60385833 }, "geometry": { "type": "Point", "coordinates": [ 16.60385833, 40.67189167 ] } },
{ "type": "Feature", "properties": { "fid": 48.0, "NOME": "FERMATA 049", "INDIRIZZO": "Via Marconi civico 1", "LAT": 40.67305, "LON": 16.60198 }, "geometry": { "type": "Point", "coordinates": [ 16.60198, 40.67305 ] } },
{ "type": "Feature", "properties": { "fid": 49.0, "NOME": "FERMATA 050", "INDIRIZZO": "Via Marconi civico 6", "LAT": 40.67459722, "LON": 16.600325 }, "geometry": { "type": "Point", "coordinates": [ 16.600325, 40.67459722 ] } },
{ "type": "Feature", "properties": { "fid": 50.0, "NOME": "FERMATA 051", "INDIRIZZO": "Via Marconi civico 18", "LAT": 40.675736, "LON": 16.59951 }, "geometry": { "type": "Point", "coordinates": [ 16.59951, 40.675736 ] } },
{ "type": "Feature", "properties": { "fid": 51.0, "NOME": "FERMATA 052", "INDIRIZZO": "Via S. Pardo civico 23", "LAT": 40.67679167, "LON": 16.59820833 }, "geometry": { "type": "Point", "coordinates": [ 16.59820833, 40.67679167 ] } },
{ "type": "Feature", "properties": { "fid": 52.0, "NOME": "FERMATA 053", "INDIRIZZO": "Via S. Pardo civico 96", "LAT": 40.67808611, "LON": 16.59425833 }, "geometry": { "type": "Point", "coordinates": [ 16.59425833, 40.67808611 ] } },
{ "type": "Feature", "properties": { "fid": 53.0, "NOME": "FERMATA 054", "INDIRIZZO": "Via S. Pardo civico 158 105", "LAT": 40.677837, "LON": 16.592169 }, "geometry": { "type": "Point", "coordinates": [ 16.592169, 40.677837 ] } },
{ "type": "Feature", "properties": { "fid": 54.0, "NOME": "FERMATA 055", "INDIRIZZO": "Via Sturzo civico 2", "LAT": 40.67685556, "LON": 16.58956667 }, "geometry": { "type": "Point", "coordinates": [ 16.58956667, 40.67685556 ] } },
{ "type": "Feature", "properties": { "fid": 55.0, "NOME": "FERMATA 056", "INDIRIZZO": "Via Sturzo civico 10", "LAT": 40.67630556, "LON": 16.58767222 }, "geometry": { "type": "Point", "coordinates": [ 16.58767222, 40.67630556 ] } },
{ "type": "Feature", "properties": { "fid": 56.0, "NOME": "FERMATA 057", "INDIRIZZO": "Via Sturzo Telecom", "LAT": 40.67555, "LON": 16.58649167 }, "geometry": { "type": "Point", "coordinates": [ 16.58649167, 40.67555 ] } },
{ "type": "Feature", "properties": { "fid": 57.0, "NOME": "FERMATA 058", "INDIRIZZO": "Via Gesualdo da Venosa civico 2 A", "LAT": 40.67650278, "LON": 16.58514444 }, "geometry": { "type": "Point", "coordinates": [ 16.58514444, 40.67650278 ] } },
{ "type": "Feature", "properties": { "fid": 58.0, "NOME": "FERMATA 059", "INDIRIZZO": "Via B. Croce (chiesa)", "LAT": 40.67394444, "LON": 16.58315556 }, "geometry": { "type": "Point", "coordinates": [ 16.58315556, 40.67394444 ] } },
{ "type": "Feature", "properties": { "fid": 59.0, "NOME": "FERMATA 060", "INDIRIZZO": "Via Trabaci 3 Torri", "LAT": 40.6747, "LON": 16.58491944 }, "geometry": { "type": "Point", "coordinates": [ 16.58491944, 40.6747 ] } },
{ "type": "Feature", "properties": { "fid": 60.0, "NOME": "FERMATA 061", "INDIRIZZO": "Via Sinni capolinea", "LAT": 40.67193611, "LON": 16.58130278 }, "geometry": { "type": "Point", "coordinates": [ 16.58130278, 40.67193611 ] } },
{ "type": "Feature", "properties": { "fid": 61.0, "NOME": "FERMATA 062", "INDIRIZZO": "Via Agri civico 4", "LAT": 40.67256667, "LON": 16.57976389 }, "geometry": { "type": "Point", "coordinates": [ 16.57976389, 40.67256667 ] } },
{ "type": "Feature", "properties": { "fid": 62.0, "NOME": "FERMATA 063", "INDIRIZZO": "Via Agri fronte civico 9", "LAT": 40.67157778, "LON": 16.57854444 }, "geometry": { "type": "Point", "coordinates": [ 16.57854444, 40.67157778 ] } },
{ "type": "Feature", "properties": { "fid": 63.0, "NOME": "FERMATA 064", "INDIRIZZO": "Via Conversi", "LAT": 40.67304444, "LON": 16.57930833 }, "geometry": { "type": "Point", "coordinates": [ 16.57930833, 40.67304444 ] } },
{ "type": "Feature", "properties": { "fid": 64.0, "NOME": "FERMATA 065", "INDIRIZZO": "Via Conversi", "LAT": 40.67263889, "LON": 16.58119167 }, "geometry": { "type": "Point", "coordinates": [ 16.58119167, 40.67263889 ] } },
{ "type": "Feature", "properties": { "fid": 65.0, "NOME": "FERMATA 066", "INDIRIZZO": "Via B. Croce (ex biblioteca)", "LAT": 40.67297222, "LON": 16.58283333 }, "geometry": { "type": "Point", "coordinates": [ 16.58283333, 40.67297222 ] } },
{ "type": "Feature", "properties": { "fid": 66.0, "NOME": "FERMATA 067", "INDIRIZZO": "Via B. Croce (chiesa)", "LAT": 40.674068, "LON": 16.583368 }, "geometry": { "type": "Point", "coordinates": [ 16.583368, 40.674068 ] } },
{ "type": "Feature", "properties": { "fid": 67.0, "NOME": "FERMATA 068", "INDIRIZZO": "Via Trabaci Edicola", "LAT": 40.67444444, "LON": 16.58508611 }, "geometry": { "type": "Point", "coordinates": [ 16.58508611, 40.674444439999988 ] } },
{ "type": "Feature", "properties": { "fid": 68.0, "NOME": "FERMATA 069", "INDIRIZZO": "Viale Italia fronte coop. Ginestra", "LAT": 40.67164722, "LON": 16.58714722 }, "geometry": { "type": "Point", "coordinates": [ 16.58714722, 40.67164722 ] } },
{ "type": "Feature", "properties": { "fid": 69.0, "NOME": "FERMATA 070", "INDIRIZZO": "Viale Italia civico 41 coop. Poste", "LAT": 40.67011111, "LON": 16.58636389 }, "geometry": { "type": "Point", "coordinates": [ 16.58636389, 40.67011111 ] } },
{ "type": "Feature", "properties": { "fid": 70.0, "NOME": "FERMATA 071", "INDIRIZZO": "Viale Italia murales", "LAT": 40.670375, "LON": 16.58769444 }, "geometry": { "type": "Point", "coordinates": [ 16.58769444, 40.670375 ] } },
{ "type": "Feature", "properties": { "fid": 71.0, "NOME": "FERMATA 072", "INDIRIZZO": "Via dei Normanni Incr. Via de Martino", "LAT": 40.67173889, "LON": 16.58986944 }, "geometry": { "type": "Point", "coordinates": [ 16.58986944, 40.67173889 ] } },
{ "type": "Feature", "properties": { "fid": 72.0, "NOME": "FERMATA 073", "INDIRIZZO": "Via Collodi Civico 14 Muraglione", "LAT": 40.67101667, "LON": 16.59318889 }, "geometry": { "type": "Point", "coordinates": [ 16.59318889, 40.671016670000014 ] } },
{ "type": "Feature", "properties": { "fid": 73.0, "NOME": "FERMATA 074", "INDIRIZZO": "Via Collodi Piazzetta", "LAT": 40.66998056, "LON": 16.59400278 }, "geometry": { "type": "Point", "coordinates": [ 16.59400278, 40.66998056 ] } },
{ "type": "Feature", "properties": { "fid": 74.0, "NOME": "FERMATA 075", "INDIRIZZO": "Viale Europa 1", "LAT": 40.66864722, "LON": 16.59292222 }, "geometry": { "type": "Point", "coordinates": [ 16.59292222, 40.66864722 ] } },
{ "type": "Feature", "properties": { "fid": 75.0, "NOME": "FERMATA 076", "INDIRIZZO": "Viale Europa Pineta", "LAT": 40.66855556, "LON": 16.59099167 }, "geometry": { "type": "Point", "coordinates": [ 16.59099167, 40.66855556 ] } },
{ "type": "Feature", "properties": { "fid": 76.0, "NOME": "FERMATA 077", "INDIRIZZO": "Viale Europa fronte civico 28", "LAT": 40.666884, "LON": 16.590514 }, "geometry": { "type": "Point", "coordinates": [ 16.590514, 40.666884 ] } },
{ "type": "Feature", "properties": { "fid": 77.0, "NOME": "FERMATA 078", "INDIRIZZO": "Viale Europa Bar Europa", "LAT": 40.66578889, "LON": 16.59206389 }, "geometry": { "type": "Point", "coordinates": [ 16.59206389, 40.66578889 ] } },
{ "type": "Feature", "properties": { "fid": 78.0, "NOME": "FERMATA 079", "INDIRIZZO": "VIALE EUROPA Macelleria", "LAT": 40.66466, "LON": 16.59416 }, "geometry": { "type": "Point", "coordinates": [ 16.59416, 40.66466 ] } },
{ "type": "Feature", "properties": { "fid": 79.0, "NOME": "FERMATA 080", "INDIRIZZO": "VIALE EUROPA Fr. Datacontact", "LAT": 40.66429, "LON": 16.59724 }, "geometry": { "type": "Point", "coordinates": [ 16.59724, 40.66429 ] } },
{ "type": "Feature", "properties": { "fid": 80.0, "NOME": "FERMATA 081", "INDIRIZZO": "Via Cappelluti. fronte civico 58", "LAT": 40.663925, "LON": 16.59870833 }, "geometry": { "type": "Point", "coordinates": [ 16.59870833, 40.663925 ] } },
{ "type": "Feature", "properties": { "fid": 81.0, "NOME": "FERMATA 082", "INDIRIZZO": "Via Passarelli. civico 69 B", "LAT": 40.66365278, "LON": 16.60076667 }, "geometry": { "type": "Point", "coordinates": [ 16.60076667, 40.66365278 ] } },
{ "type": "Feature", "properties": { "fid": 82.0, "NOME": "FERMATA 083", "INDIRIZZO": "Via Passarelli. civico 43", "LAT": 40.6645, "LON": 16.60252778 }, "geometry": { "type": "Point", "coordinates": [ 16.60252778, 40.6645 ] } },
{ "type": "Feature", "properties": { "fid": 83.0, "NOME": "FERMATA 084", "INDIRIZZO": "Via Passarelli. civico 3", "LAT": 40.66576667, "LON": 16.60511111 }, "geometry": { "type": "Point", "coordinates": [ 16.60511111, 40.66576667 ] } },
{ "type": "Feature", "properties": { "fid": 84.0, "NOME": "FERMATA 085", "INDIRIZZO": "Via Lanera Istituto Magistrale", "LAT": 40.66169444, "LON": 16.6038 }, "geometry": { "type": "Point", "coordinates": [ 16.6038, 40.66169444 ] } },
{ "type": "Feature", "properties": { "fid": 85.0, "NOME": "FERMATA 086", "INDIRIZZO": "Via Levi Villaggio del Fanciullo", "LAT": 40.65972, "LON": 16.60137 }, "geometry": { "type": "Point", "coordinates": [ 16.60137, 40.65972 ] } },
{ "type": "Feature", "properties": { "fid": 86.0, "NOME": "FERMATA 087", "INDIRIZZO": "Via Levi inc. Via dell Ulivo", "LAT": 40.65827778, "LON": 16.60415 }, "geometry": { "type": "Point", "coordinates": [ 16.60415, 40.65827778 ] } },
{ "type": "Feature", "properties": { "fid": 87.0, "NOME": "FERMATA 088", "INDIRIZZO": "Via Levi civico 8 bis", "LAT": 40.65788889, "LON": 16.60638333 }, "geometry": { "type": "Point", "coordinates": [ 16.60638333, 40.657888890000017 ] } },
{ "type": "Feature", "properties": { "fid": 88.0, "NOME": "FERMATA 089", "INDIRIZZO": "Via Levi. civico 12", "LAT": 40.658525, "LON": 16.60920278 }, "geometry": { "type": "Point", "coordinates": [ 16.60920278, 40.658525 ] } },
{ "type": "Feature", "properties": { "fid": 89.0, "NOME": "FERMATA 090", "INDIRIZZO": "Via Montescaglioso casa cantoniera", "LAT": 40.65548333, "LON": 16.61396389 }, "geometry": { "type": "Point", "coordinates": [ 16.61396389, 40.65548333 ] } },
{ "type": "Feature", "properties": { "fid": 90.0, "NOME": "FERMATA 091", "INDIRIZZO": "Via Montescaglioso distributore Q8", "LAT": 40.65206389, "LON": 16.61656944 }, "geometry": { "type": "Point", "coordinates": [ 16.61656944, 40.65206389 ] } },
{ "type": "Feature", "properties": { "fid": 91.0, "NOME": "FERMATA 092", "INDIRIZZO": "Via Montescaglioso ASM", "LAT": 40.649425, "LON": 16.61720833 }, "geometry": { "type": "Point", "coordinates": [ 16.61720833, 40.649425 ] } },
{ "type": "Feature", "properties": { "fid": 92.0, "NOME": "FERMATA 093", "INDIRIZZO": "Via Montescaglioso civico 48 Bar Royal", "LAT": 40.64688611, "LON": 16.61786111 }, "geometry": { "type": "Point", "coordinates": [ 16.61786111, 40.64688611 ] } },
{ "type": "Feature", "properties": { "fid": 93.0, "NOME": "FERMATA 094", "INDIRIZZO": "Via Montescaglioso Serra Loconte", "LAT": 40.63363, "LON": 16.62368 }, "geometry": { "type": "Point", "coordinates": [ 16.62368, 40.63363 ] } },
{ "type": "Feature", "properties": { "fid": 94.0, "NOME": "FERMATA 095", "INDIRIZZO": "Via Montescaglioso Serra Loconte a salire", "LAT": 40.636725, "LON": 16.62318056 }, "geometry": { "type": "Point", "coordinates": [ 16.62318056, 40.636725 ] } },
{ "type": "Feature", "properties": { "fid": 95.0, "NOME": "FERMATA 096", "INDIRIZZO": "Via Montescaglioso inc. C.da S. Francesco", "LAT": 40.64206667, "LON": 16.62178611 }, "geometry": { "type": "Point", "coordinates": [ 16.62178611, 40.64206667 ] } },
{ "type": "Feature", "properties": { "fid": 96.0, "NOME": "FERMATA 097", "INDIRIZZO": "Via Montescaglioso fronte civico 48 Bar Royal", "LAT": 40.64710556, "LON": 16.61781111 }, "geometry": { "type": "Point", "coordinates": [ 16.61781111, 40.64710556 ] } },
{ "type": "Feature", "properties": { "fid": 97.0, "NOME": "FERMATA 098", "INDIRIZZO": "Via Levi rotatoria Ospedale", "LAT": 40.65611111, "LON": 16.61295278 }, "geometry": { "type": "Point", "coordinates": [ 16.61295278, 40.65611111 ] } },
{ "type": "Feature", "properties": { "fid": 98.0, "NOME": "FERMATA 099", "INDIRIZZO": "Via Levi. civico 5", "LAT": 40.65869444, "LON": 16.60919444 }, "geometry": { "type": "Point", "coordinates": [ 16.60919444, 40.658694439999984 ] } },
{ "type": "Feature", "properties": { "fid": 99.0, "NOME": "FERMATA 100", "INDIRIZZO": "Via dell Ulivo Piazza Semeria", "LAT": 40.65882778, "LON": 16.60463333 }, "geometry": { "type": "Point", "coordinates": [ 16.60463333, 40.65882778 ] } },
{ "type": "Feature", "properties": { "fid": 100.0, "NOME": "FERMATA 101", "INDIRIZZO": "Viale della Quercia fronte civico 8", "LAT": 40.65987778, "LON": 16.603925 }, "geometry": { "type": "Point", "coordinates": [ 16.603925, 40.65987778 ] } },
{ "type": "Feature", "properties": { "fid": 101.0, "NOME": "FERMATA 102", "INDIRIZZO": "Viale della Quercia capolinea", "LAT": 40.66063333, "LON": 16.60275 }, "geometry": { "type": "Point", "coordinates": [ 16.60275, 40.66063333 ] } },
{ "type": "Feature", "properties": { "fid": 102.0, "NOME": "FERMATA 103", "INDIRIZZO": "Via Lanera Fronte Istituto Magistrale", "LAT": 40.66156389, "LON": 16.60395 }, "geometry": { "type": "Point", "coordinates": [ 16.60395, 40.661563889999989 ] } },
{ "type": "Feature", "properties": { "fid": 103.0, "NOME": "FERMATA 104-105", "INDIRIZZO": "Piazza Matteotti capolinea", "LAT": 40.66673333, "LON": 16.60207778 }, "geometry": { "type": "Point", "coordinates": [ 16.60207778, 40.66673333 ] } },
{ "type": "Feature", "properties": { "fid": 104.0, "NOME": "FERMATA 106-107", "INDIRIZZO": "Via Moro. Commerciale", "LAT": 40.66464444, "LON": 16.59864167 }, "geometry": { "type": "Point", "coordinates": [ 16.59864167, 40.66464444 ] } },
{ "type": "Feature", "properties": { "fid": 105.0, "NOME": "FERMATA 108", "INDIRIZZO": "Via B. Croce (ex biblioteca)", "LAT": 40.672935, "LON": 16.582768 }, "geometry": { "type": "Point", "coordinates": [ 16.582768, 40.672935 ] } },
{ "type": "Feature", "properties": { "fid": 106.0, "NOME": "FERMATA 109", "INDIRIZZO": "Via Collodi Civico 14 Muraglione", "LAT": 40.6709, "LON": 16.59321667 }, "geometry": { "type": "Point", "coordinates": [ 16.59321667, 40.6709 ] } },
{ "type": "Feature", "properties": { "fid": 107.0, "NOME": "FERMATA 110", "INDIRIZZO": "Viale Italia murales", "LAT": 40.67051667, "LON": 16.58763056 }, "geometry": { "type": "Point", "coordinates": [ 16.58763056, 40.67051667 ] } },
{ "type": "Feature", "properties": { "fid": 108.0, "NOME": "FERMATA 111", "INDIRIZZO": "Viale Italia civico 41 coop. Poste", "LAT": 40.670075, "LON": 16.58652778 }, "geometry": { "type": "Point", "coordinates": [ 16.58652778, 40.670075 ] } },
{ "type": "Feature", "properties": { "fid": 109.0, "NOME": "FERMATA 112", "INDIRIZZO": "Viale Italia coop. Ginestra", "LAT": 40.67133611, "LON": 16.58721667 }, "geometry": { "type": "Point", "coordinates": [ 16.58721667, 40.67133611 ] } },
{ "type": "Feature", "properties": { "fid": 110.0, "NOME": "FERMATA 113", "INDIRIZZO": "VIALE EUROPA Datacontact", "LAT": 40.66453, "LON": 16.59721 }, "geometry": { "type": "Point", "coordinates": [ 16.59721, 40.66453 ] } },
{ "type": "Feature", "properties": { "fid": 111.0, "NOME": "FERMATA 114", "INDIRIZZO": "VIALE EUROPA Fr. Macelleria", "LAT": 40.66487, "LON": 16.59435 }, "geometry": { "type": "Point", "coordinates": [ 16.59435, 40.66487 ] } },
{ "type": "Feature", "properties": { "fid": 112.0, "NOME": "FERMATA 115", "INDIRIZZO": "Viale Europa Bar Europa", "LAT": 40.665932, "LON": 16.591941 }, "geometry": { "type": "Point", "coordinates": [ 16.591941, 40.665932 ] } },
{ "type": "Feature", "properties": { "fid": 113.0, "NOME": "FERMATA 116", "INDIRIZZO": "Viale Europa civico 30", "LAT": 40.66699722, "LON": 16.59052778 }, "geometry": { "type": "Point", "coordinates": [ 16.59052778, 40.66699722 ] } },
{ "type": "Feature", "properties": { "fid": 114.0, "NOME": "FERMATA 117", "INDIRIZZO": "Viale Europa Pineta", "LAT": 40.66843056, "LON": 16.59125 }, "geometry": { "type": "Point", "coordinates": [ 16.59125, 40.66843056 ] } },
{ "type": "Feature", "properties": { "fid": 115.0, "NOME": "FERMATA 118", "INDIRIZZO": "Viale Europa 1", "LAT": 40.668603, "LON": 16.592756 }, "geometry": { "type": "Point", "coordinates": [ 16.592756, 40.668603 ] } },
{ "type": "Feature", "properties": { "fid": 116.0, "NOME": "FERMATA 119", "INDIRIZZO": "Lazzazzera Caserma GdF", "LAT": 40.66983889, "LON": 16.59621111 }, "geometry": { "type": "Point", "coordinates": [ 16.59621111, 40.66983889 ] } },
{ "type": "Feature", "properties": { "fid": 117.0, "NOME": "FERMATA 120", "INDIRIZZO": "Via Dante edicola Professionale", "LAT": 40.67184, "LON": 16.594869 }, "geometry": { "type": "Point", "coordinates": [ 16.594869, 40.67184 ] } },
{ "type": "Feature", "properties": { "fid": 118.0, "NOME": "FERMATA 121", "INDIRIZZO": "Via Dante Fronte Distributore Agip", "LAT": 40.67321389, "LON": 16.59271111 }, "geometry": { "type": "Point", "coordinates": [ 16.59271111, 40.67321389 ] } },
{ "type": "Feature", "properties": { "fid": 119.0, "NOME": "FERMATA 122", "INDIRIZZO": "Via Taranto Piazzetta", "LAT": 40.677, "LON": 16.57676667 }, "geometry": { "type": "Point", "coordinates": [ 16.57676667, 40.677 ] } },
{ "type": "Feature", "properties": { "fid": 120.0, "NOME": "FERMATA 123", "INDIRIZZO": "Via Taranto Arteprit", "LAT": 40.678295, "LON": 16.575831 }, "geometry": { "type": "Point", "coordinates": [ 16.575831, 40.678295 ] } },
{ "type": "Feature", "properties": { "fid": 121.0, "NOME": "FERMATA 124", "INDIRIZZO": "Via Gravina Ford Brindisi", "LAT": 40.68053889, "LON": 16.58420278 }, "geometry": { "type": "Point", "coordinates": [ 16.58420278, 40.68053889 ] } },
{ "type": "Feature", "properties": { "fid": 122.0, "NOME": "FERMATA 125", "INDIRIZZO": "Via Dante Pizzeria I 2 Re", "LAT": 40.67770556, "LON": 16.58725 }, "geometry": { "type": "Point", "coordinates": [ 16.58725, 40.67770556 ] } },
{ "type": "Feature", "properties": { "fid": 123.0, "NOME": "FERMATA 126", "INDIRIZZO": "Via Sturzo civico 2", "LAT": 40.676808, "LON": 16.589674 }, "geometry": { "type": "Point", "coordinates": [ 16.589674, 40.676808 ] } },
{ "type": "Feature", "properties": { "fid": 124.0, "NOME": "FERMATA 127", "INDIRIZZO": "Via S. Pardo civico 158 105", "LAT": 40.67776667, "LON": 16.59228889 }, "geometry": { "type": "Point", "coordinates": [ 16.59228889, 40.67776667 ] } },
{ "type": "Feature", "properties": { "fid": 125.0, "NOME": "FERMATA 128", "INDIRIZZO": "Via S. Pardo fronte civico 74", "LAT": 40.67781, "LON": 16.594783 }, "geometry": { "type": "Point", "coordinates": [ 16.594783, 40.67781 ] } },
{ "type": "Feature", "properties": { "fid": 126.0, "NOME": "FERMATA 129", "INDIRIZZO": "Via S. Pardo civico 23", "LAT": 40.67671389, "LON": 16.59842778 }, "geometry": { "type": "Point", "coordinates": [ 16.59842778, 40.67671389 ] } },
{ "type": "Feature", "properties": { "fid": 127.0, "NOME": "FERMATA 130", "INDIRIZZO": "Via Marconi civico 75", "LAT": 40.67481111, "LON": 16.59993889 }, "geometry": { "type": "Point", "coordinates": [ 16.59993889, 40.67481111 ] } },
{ "type": "Feature", "properties": { "fid": 128.0, "NOME": "FERMATA 131", "INDIRIZZO": "Via Marconi civico 1", "LAT": 40.67297778, "LON": 16.60183889 }, "geometry": { "type": "Point", "coordinates": [ 16.60183889, 40.67297778 ] } },
{ "type": "Feature", "properties": { "fid": 129.0, "NOME": "FERMATA 132", "INDIRIZZO": "Via Castello. civico 18", "LAT": 40.6627, "LON": 16.60288889 }, "geometry": { "type": "Point", "coordinates": [ 16.60288889, 40.6627 ] } },
{ "type": "Feature", "properties": { "fid": 130.0, "NOME": "FERMATA 133", "INDIRIZZO": "Via Castello. civico 28", "LAT": 40.66214167, "LON": 16.60118889 }, "geometry": { "type": "Point", "coordinates": [ 16.60118889, 40.66214167 ] } },
{ "type": "Feature", "properties": { "fid": 131.0, "NOME": "FERMATA 134", "INDIRIZZO": "Bretella Via Pecci Enel DPL", "LAT": 40.66071389, "LON": 16.598125 }, "geometry": { "type": "Point", "coordinates": [ 16.598125, 40.66071389 ] } },
{ "type": "Feature", "properties": { "fid": 132.0, "NOME": "FERMATA 135", "INDIRIZZO": "Via Fosse Ardeatine capolinea", "LAT": 40.65727778, "LON": 16.61253611 }, "geometry": { "type": "Point", "coordinates": [ 16.61253611, 40.65727778 ] } },
{ "type": "Feature", "properties": { "fid": 133.0, "NOME": "FERMATA 136", "INDIRIZZO": "Via Levi bretella", "LAT": 40.65652778, "LON": 16.6155 }, "geometry": { "type": "Point", "coordinates": [ 16.6155, 40.65652778 ] } },
{ "type": "Feature", "properties": { "fid": 134.0, "NOME": "FERMATA 137", "INDIRIZZO": "Via Lazzazzera S.M. Pascoli", "LAT": 40.67233611, "LON": 16.59777778 }, "geometry": { "type": "Point", "coordinates": [ 16.59777778, 40.67233611 ] } },
{ "type": "Feature", "properties": { "fid": 135.0, "NOME": "FERMATA 138", "INDIRIZZO": "Via Lazzazzera Datacontact", "LAT": 40.67328056, "LON": 16.59869444 }, "geometry": { "type": "Point", "coordinates": [ 16.59869444, 40.67328056 ] } },
{ "type": "Feature", "properties": { "fid": 136.0, "NOME": "FERMATA 139", "INDIRIZZO": "Via Nazionale", "LAT": 40.67494444, "LON": 16.597075 }, "geometry": { "type": "Point", "coordinates": [ 16.597075, 40.67494444 ] } },
{ "type": "Feature", "properties": { "fid": 137.0, "NOME": "FERMATA 140", "INDIRIZZO": "Via Nazionale Civico 198", "LAT": 40.676268, "LON": 16.594359 }, "geometry": { "type": "Point", "coordinates": [ 16.594359, 40.676268 ] } },
{ "type": "Feature", "properties": { "fid": 138.0, "NOME": "FERMATA 141", "INDIRIZZO": "Via Nazionale Stazione Villa Longo", "LAT": 40.67833056, "LON": 16.59075833 }, "geometry": { "type": "Point", "coordinates": [ 16.59075833, 40.67833056 ] } },
{ "type": "Feature", "properties": { "fid": 139.0, "NOME": "FERMATA 142", "INDIRIZZO": "C.da Quartarella 1", "LAT": 40.680976, "LON": 16.590269 }, "geometry": { "type": "Point", "coordinates": [ 16.590269, 40.680976 ] } },
{ "type": "Feature", "properties": { "fid": 140.0, "NOME": "FERMATA 143", "INDIRIZZO": "C.da La Vaglia 1", "LAT": 40.68355556, "LON": 16.592825 }, "geometry": { "type": "Point", "coordinates": [ 16.592825, 40.68355556 ] } },
{ "type": "Feature", "properties": { "fid": 141.0, "NOME": "FERMATA 144", "INDIRIZZO": "C.da La Vaglia 2", "LAT": 40.68275278, "LON": 16.59641667 }, "geometry": { "type": "Point", "coordinates": [ 16.59641667, 40.68275278 ] } },
{ "type": "Feature", "properties": { "fid": 142.0, "NOME": "FERMATA 145", "INDIRIZZO": "C.da La Palomba", "LAT": 40.68146111, "LON": 16.60760833 }, "geometry": { "type": "Point", "coordinates": [ 16.60760833, 40.68146111 ] } },
{ "type": "Feature", "properties": { "fid": 143.0, "NOME": "FERMATA 146", "INDIRIZZO": "C.da La Vaglia 3 soppressa", "LAT": 40.68211111, "LON": 16.60480278 }, "geometry": { "type": "Point", "coordinates": [ 16.60480278, 40.68211111 ] } },
{ "type": "Feature", "properties": { "fid": 144.0, "NOME": "FERMATA 147", "INDIRIZZO": "Cimitero", "LAT": 40.68515833, "LON": 16.60401667 }, "geometry": { "type": "Point", "coordinates": [ 16.60401667, 40.685158329999986 ] } },
{ "type": "Feature", "properties": { "fid": 145.0, "NOME": "FERMATA 148", "INDIRIZZO": "C.da La Vaglia 4", "LAT": 40.68282222, "LON": 16.59614722 }, "geometry": { "type": "Point", "coordinates": [ 16.59614722, 40.68282222 ] } },
{ "type": "Feature", "properties": { "fid": 146.0, "NOME": "FERMATA 149", "INDIRIZZO": "C.da La Vaglia 5", "LAT": 40.68360278, "LON": 16.59281944 }, "geometry": { "type": "Point", "coordinates": [ 16.59281944, 40.68360278 ] } },
{ "type": "Feature", "properties": { "fid": 147.0, "NOME": "FERMATA 150", "INDIRIZZO": "C.da Quartarella 2", "LAT": 40.68240833, "LON": 16.59095278 }, "geometry": { "type": "Point", "coordinates": [ 16.59095278, 40.682408330000015 ] } },
{ "type": "Feature", "properties": { "fid": 148.0, "NOME": "FERMATA 151", "INDIRIZZO": "C.da Quartarella 1", "LAT": 40.68093611, "LON": 16.59011389 }, "geometry": { "type": "Point", "coordinates": [ 16.59011389, 40.68093611 ] } },
{ "type": "Feature", "properties": { "fid": 149.0, "NOME": "FERMATA 152", "INDIRIZZO": "Via Manzoni Incr. Largo De Gasperi", "LAT": 40.67489444, "LON": 16.59491667 }, "geometry": { "type": "Point", "coordinates": [ 16.59491667, 40.67489444 ] } },
{ "type": "Feature", "properties": { "fid": 150.0, "NOME": "FERMATA 153-154", "INDIRIZZO": "Via Dante distr. Agip", "LAT": 40.6733, "LON": 16.592375 }, "geometry": { "type": "Point", "coordinates": [ 16.592375, 40.6733 ] } },
{ "type": "Feature", "properties": { "fid": 151.0, "NOME": "FERMATA 155", "INDIRIZZO": "Via Dante fronte Professionale", "LAT": 40.67160278, "LON": 16.59515278 }, "geometry": { "type": "Point", "coordinates": [ 16.59515278, 40.67160278 ] } },
{ "type": "Feature", "properties": { "fid": 152.0, "NOME": "FERMATA 156", "INDIRIZZO": "Via Lazzazzera Fr. Caserma GdF", "LAT": 40.6698, "LON": 16.59604167 }, "geometry": { "type": "Point", "coordinates": [ 16.59604167, 40.6698 ] } },
{ "type": "Feature", "properties": { "fid": 153.0, "NOME": "FERMATA 157", "INDIRIZZO": "Via Timmari. civico 12", "LAT": 40.66355833, "LON": 16.59604444 }, "geometry": { "type": "Point", "coordinates": [ 16.59604444, 40.66355833 ] } },
{ "type": "Feature", "properties": { "fid": 154.0, "NOME": "FERMATA 158", "INDIRIZZO": "Via Morelli fronte Htl Ridola", "LAT": 40.65809167, "LON": 16.61161111 }, "geometry": { "type": "Point", "coordinates": [ 16.61161111, 40.65809167 ] } },
{ "type": "Feature", "properties": { "fid": 155.0, "NOME": "FERMATA 159", "INDIRIZZO": "Via dei Messapi capoilinea civ. 17", "LAT": 40.68748056, "LON": 16.58567778 }, "geometry": { "type": "Point", "coordinates": [ 16.58567778, 40.68748056 ] } },
{ "type": "Feature", "properties": { "fid": 156.0, "NOME": "FERMATA 160", "INDIRIZZO": "Via dei Messapi fronte condominio Alabama", "LAT": 40.686045, "LON": 16.585233 }, "geometry": { "type": "Point", "coordinates": [ 16.585233, 40.686045 ] } },
{ "type": "Feature", "properties": { "fid": 157.0, "NOME": "FERMATA 161", "INDIRIZZO": "Via dei Messapi inc. Dauni ambulatorio", "LAT": 40.68436389, "LON": 16.58448611 }, "geometry": { "type": "Point", "coordinates": [ 16.58448611, 40.68436389 ] } },
{ "type": "Feature", "properties": { "fid": 158.0, "NOME": "FERMATA 162", "INDIRIZZO": "Via dell Ariete C.da S. Francesco", "LAT": 40.64201111, "LON": 16.62230556 }, "geometry": { "type": "Point", "coordinates": [ 16.62230556, 40.64201111 ] } },
{ "type": "Feature", "properties": { "fid": 159.0, "NOME": "FERMATA 163", "INDIRIZZO": "Via del Leone civico 30", "LAT": 40.642, "LON": 16.62535 }, "geometry": { "type": "Point", "coordinates": [ 16.62535, 40.642 ] } },
{ "type": "Feature", "properties": { "fid": 160.0, "NOME": "FERMATA 164", "INDIRIZZO": "Via dello Scorpione fronte civico 11", "LAT": 40.64040278, "LON": 16.62670556 }, "geometry": { "type": "Point", "coordinates": [ 16.62670556, 40.64040278 ] } },
{ "type": "Feature", "properties": { "fid": 161.0, "NOME": "FERMATA 165", "INDIRIZZO": "Via del Capricorno civico 5", "LAT": 40.63926667, "LON": 16.62719722 }, "geometry": { "type": "Point", "coordinates": [ 16.62719722, 40.63926667 ] } },
{ "type": "Feature", "properties": { "fid": 162.0, "NOME": "FERMATA 166", "INDIRIZZO": "Via dei Pesci capolinea", "LAT": 40.63988611, "LON": 16.62572778 }, "geometry": { "type": "Point", "coordinates": [ 16.62572778, 40.639886109999985 ] } },
{ "type": "Feature", "properties": { "fid": 163.0, "NOME": "FERMATA 167", "INDIRIZZO": "Via Ricciardi civico 55", "LAT": 40.64306, "LON": 16.62424 }, "geometry": { "type": "Point", "coordinates": [ 16.62424, 40.64306 ] } },
{ "type": "Feature", "properties": { "fid": 164.0, "NOME": "FERMATA 168", "INDIRIZZO": "Via Ricciardi civico 9", "LAT": 40.64450278, "LON": 16.62415 }, "geometry": { "type": "Point", "coordinates": [ 16.62415, 40.64450278000001 ] } },
{ "type": "Feature", "properties": { "fid": 165.0, "NOME": "FERMATA 169", "INDIRIZZO": "Via Farina. civico 42", "LAT": 40.64629167, "LON": 16.62324167 }, "geometry": { "type": "Point", "coordinates": [ 16.62324167, 40.64629167 ] } },
{ "type": "Feature", "properties": { "fid": 166.0, "NOME": "FERMATA 170", "INDIRIZZO": "Via Frangione. civico 4", "LAT": 40.64731667, "LON": 16.621925 }, "geometry": { "type": "Point", "coordinates": [ 16.621925, 40.64731667 ] } },
{ "type": "Feature", "properties": { "fid": 167.0, "NOME": "FERMATA 171", "INDIRIZZO": "Via Guida. civico 16", "LAT": 40.648675, "LON": 16.61996944 }, "geometry": { "type": "Point", "coordinates": [ 16.61996944, 40.648675 ] } },
{ "type": "Feature", "properties": { "fid": 168.0, "NOME": "FERMATA 172", "INDIRIZZO": "Piazza S. Agnese capolinea", "LAT": 40.64970556, "LON": 16.62011944 }, "geometry": { "type": "Point", "coordinates": [ 16.62011944, 40.64970556 ] } },
{ "type": "Feature", "properties": { "fid": 169.0, "NOME": "FERMATA 173", "INDIRIZZO": "Via Cappuccini; civico 60", "LAT": 40.65238889, "LON": 16.61872222 }, "geometry": { "type": "Point", "coordinates": [ 16.61872222, 40.65238889 ] } },
{ "type": "Feature", "properties": { "fid": 170.0, "NOME": "FERMATA 174", "INDIRIZZO": "Via Cappuccini. incr. Rec. Cappuccini", "LAT": 40.65433889, "LON": 16.6177 }, "geometry": { "type": "Point", "coordinates": [ 16.6177, 40.654338889999984 ] } },
{ "type": "Feature", "properties": { "fid": 171.0, "NOME": "FERMATA 175", "INDIRIZZO": "Via Cappuccini. civico 3", "LAT": 40.65571944, "LON": 16.61662778 }, "geometry": { "type": "Point", "coordinates": [ 16.61662778, 40.65571944 ] } },
{ "type": "Feature", "properties": { "fid": 172.0, "NOME": "FERMATA 176", "INDIRIZZO": "Via Nazionale Civico 2 (Madonnina)", "LAT": 40.67269167, "LON": 16.60192778 }, "geometry": { "type": "Point", "coordinates": [ 16.60192778, 40.67269167 ] } },
{ "type": "Feature", "properties": { "fid": 173.0, "NOME": "FERMATA 177", "INDIRIZZO": "Via Nazionale Caserma Forestale", "LAT": 40.67368056, "LON": 16.59991389 }, "geometry": { "type": "Point", "coordinates": [ 16.59991389, 40.67368056 ] } },
{ "type": "Feature", "properties": { "fid": 174.0, "NOME": "FERMATA 178", "INDIRIZZO": "Via dei Peucezi Antincendio Bar", "LAT": 40.68005, "LON": 16.58843 }, "geometry": { "type": "Point", "coordinates": [ 16.58843, 40.68005 ] } },
{ "type": "Feature", "properties": { "fid": 175.0, "NOME": "FERMATA 179", "INDIRIZZO": "Via dei Peucezi fine 4 corsie", "LAT": 40.681425, "LON": 16.58715 }, "geometry": { "type": "Point", "coordinates": [ 16.58715, 40.681425 ] } },
{ "type": "Feature", "properties": { "fid": 176.0, "NOME": "FERMATA 180", "INDIRIZZO": "Via dei Peucezi civico 22", "LAT": 40.68246944, "LON": 16.58616111 }, "geometry": { "type": "Point", "coordinates": [ 16.58616111, 40.68246944 ] } },
{ "type": "Feature", "properties": { "fid": 177.0, "NOME": "FERMATA 181", "INDIRIZZO": "Via dei Peucezi civico 30", "LAT": 40.68375556, "LON": 16.5849 }, "geometry": { "type": "Point", "coordinates": [ 16.5849, 40.68375556 ] } },
{ "type": "Feature", "properties": { "fid": 178.0, "NOME": "FERMATA 182", "INDIRIZZO": "Via dei Messapi condominio Alabama", "LAT": 40.685773, "LON": 16.585136 }, "geometry": { "type": "Point", "coordinates": [ 16.585136, 40.685773 ] } },
{ "type": "Feature", "properties": { "fid": 179.0, "NOME": "FERMATA 183", "INDIRIZZO": "Via dei Messapi incr. Sparacartucce", "LAT": 40.68783333, "LON": 16.58703333 }, "geometry": { "type": "Point", "coordinates": [ 16.58703333, 40.68783333 ] } },
{ "type": "Feature", "properties": { "fid": 180.0, "NOME": "FERMATA 184", "INDIRIZZO": "Via dei Messapi civico 27 muraglione", "LAT": 40.68868333, "LON": 16.58664444 }, "geometry": { "type": "Point", "coordinates": [ 16.58664444, 40.68868333 ] } },
{ "type": "Feature", "properties": { "fid": 181.0, "NOME": "FERMATA 185", "INDIRIZZO": "Via Columella fronte civico 5", "LAT": 40.64458333, "LON": 16.62219722 }, "geometry": { "type": "Point", "coordinates": [ 16.62219722, 40.64458333 ] } },
{ "type": "Feature", "properties": { "fid": 182.0, "NOME": "FERMATA 186", "INDIRIZZO": "Via Columella civico 14", "LAT": 40.64309444, "LON": 16.62241667 }, "geometry": { "type": "Point", "coordinates": [ 16.62241667, 40.643094439999985 ] } },
{ "type": "Feature", "properties": { "fid": 183.0, "NOME": "FERMATA 187", "INDIRIZZO": "Via Gesualdo da Venosa fronte civico 14", "LAT": 40.67691667, "LON": 16.58359444 }, "geometry": { "type": "Point", "coordinates": [ 16.58359444, 40.67691667 ] } },
{ "type": "Feature", "properties": { "fid": 184.0, "NOME": "FERMATA 188", "INDIRIZZO": "Via Gesualdo da Venosa fronte civico 2 A", "LAT": 40.67653056, "LON": 16.58491667 }, "geometry": { "type": "Point", "coordinates": [ 16.58491667, 40.67653056 ] } },
{ "type": "Feature", "properties": { "fid": 185.0, "NOME": "FERMATA 189", "INDIRIZZO": "Via Sturzo Telecom", "LAT": 40.67538611, "LON": 16.58649722 }, "geometry": { "type": "Point", "coordinates": [ 16.58649722, 40.67538611 ] } },
{ "type": "Feature", "properties": { "fid": 186.0, "NOME": "FERMATA 190", "INDIRIZZO": "Via Sturzo civico 17", "LAT": 40.67614, "LON": 16.58794 }, "geometry": { "type": "Point", "coordinates": [ 16.58794, 40.67614 ] } },
{ "type": "Feature", "properties": { "fid": 187.0, "NOME": "FERMATA 191", "INDIRIZZO": "Via Dante incr. Via Olivetti", "LAT": 40.675522, "LON": 16.589027 }, "geometry": { "type": "Point", "coordinates": [ 16.589027, 40.675522 ] } },
{ "type": "Feature", "properties": { "fid": 188.0, "NOME": "FERMATA 192", "INDIRIZZO": "Via La Malfa carabinieri bcc", "LAT": 40.668725, "LON": 16.59933889 }, "geometry": { "type": "Point", "coordinates": [ 16.59933889, 40.668725 ] } },
{ "type": "Feature", "properties": { "fid": 189.0, "NOME": "FERMATA 193", "INDIRIZZO": "Via La Malfa Comune", "LAT": 40.66776667, "LON": 16.59997778 }, "geometry": { "type": "Point", "coordinates": [ 16.59997778, 40.66776667 ] } },
{ "type": "Feature", "properties": { "fid": 190.0, "NOME": "FERMATA 194", "INDIRIZZO": "Piazza Matteotti edicola", "LAT": 40.66651944, "LON": 16.60230556 }, "geometry": { "type": "Point", "coordinates": [ 16.60230556, 40.66651944 ] } },
{ "type": "Feature", "properties": { "fid": 191.0, "NOME": "FERMATA 195", "INDIRIZZO": "Via Frangione. Asm Capolinea", "LAT": 40.649815, "LON": 16.617626 }, "geometry": { "type": "Point", "coordinates": [ 16.617626, 40.649815 ] } },
{ "type": "Feature", "properties": { "fid": 192.0, "NOME": "FERMATA 196", "INDIRIZZO": "Via Farina. civico 6", "LAT": 40.64823889, "LON": 16.61875833 }, "geometry": { "type": "Point", "coordinates": [ 16.61875833, 40.64823889 ] } },
{ "type": "Feature", "properties": { "fid": 193.0, "NOME": "FERMATA 197", "INDIRIZZO": "Via Farina. civico 72", "LAT": 40.6463, "LON": 16.61985833 }, "geometry": { "type": "Point", "coordinates": [ 16.61985833, 40.6463 ] } },
{ "type": "Feature", "properties": { "fid": 194.0, "NOME": "FERMATA 198", "INDIRIZZO": "Via Farina. civico 93", "LAT": 40.64554444, "LON": 16.62170278 }, "geometry": { "type": "Point", "coordinates": [ 16.62170278, 40.64554444 ] } },
{ "type": "Feature", "properties": { "fid": 195.0, "NOME": "FERMATA 199", "INDIRIZZO": "Via Levi bretella 1", "LAT": 40.65672778, "LON": 16.61326944 }, "geometry": { "type": "Point", "coordinates": [ 16.61326944, 40.65672778 ] } },
{ "type": "Feature", "properties": { "fid": 196.0, "NOME": "FERMATA 200", "INDIRIZZO": "Via A. di Francia. DPL Enel", "LAT": 40.659588, "LON": 16.59822 }, "geometry": { "type": "Point", "coordinates": [ 16.59822, 40.659588 ] } },
{ "type": "Feature", "properties": { "fid": 197.0, "NOME": "FERMATA 201", "INDIRIZZO": "Via Passarelli. civico 115", "LAT": 40.662762, "LON": 16.598442 }, "geometry": { "type": "Point", "coordinates": [ 16.598442, 40.662762 ] } },
{ "type": "Feature", "properties": { "fid": 198.0, "NOME": "FERMATA 202", "INDIRIZZO": "Via Gattini civico 2", "LAT": 40.67074167, "LON": 16.60631944 }, "geometry": { "type": "Point", "coordinates": [ 16.60631944, 40.67074167 ] } },
{ "type": "Feature", "properties": { "fid": 199.0, "NOME": "FERMATA 203", "INDIRIZZO": "Via Gattini civico 46 Bis", "LAT": 40.67249167, "LON": 16.60748333 }, "geometry": { "type": "Point", "coordinates": [ 16.60748333, 40.67249167 ] } },
{ "type": "Feature", "properties": { "fid": 200.0, "NOME": "FERMATA 204", "INDIRIZZO": "Via Cererie fronte civico 41", "LAT": 40.67414444, "LON": 16.60624444 }, "geometry": { "type": "Point", "coordinates": [ 16.60624444, 40.67414444 ] } },
{ "type": "Feature", "properties": { "fid": 201.0, "NOME": "FERMATA 205", "INDIRIZZO": "Via Cererie fronte civico 59", "LAT": 40.67488611, "LON": 16.60425 }, "geometry": { "type": "Point", "coordinates": [ 16.60425, 40.67488611 ] } },
{ "type": "Feature", "properties": { "fid": 202.0, "NOME": "FERMATA 206", "INDIRIZZO": "Via dei Dauni fronte Brancaccio", "LAT": 40.68276944, "LON": 16.58173889 }, "geometry": { "type": "Point", "coordinates": [ 16.58173889, 40.68276944 ] } },
{ "type": "Feature", "properties": { "fid": 203.0, "NOME": "FERMATA 207", "INDIRIZZO": "Piazzetta Vivaldi", "LAT": 40.68391667, "LON": 16.57771111 }, "geometry": { "type": "Point", "coordinates": [ 16.57771111, 40.68391667 ] } },
{ "type": "Feature", "properties": { "fid": 204.0, "NOME": "FERMATA 208", "INDIRIZZO": "Via Paganini", "LAT": 40.68558333, "LON": 16.57705278 }, "geometry": { "type": "Point", "coordinates": [ 16.57705278, 40.68558333 ] } },
{ "type": "Feature", "properties": { "fid": 205.0, "NOME": "FERMATA 209", "INDIRIZZO": "Rotatoria Arco", "LAT": 40.68684444, "LON": 16.57700278 }, "geometry": { "type": "Point", "coordinates": [ 16.57700278, 40.68684444 ] } },
{ "type": "Feature", "properties": { "fid": 206.0, "NOME": "FERMATA 210", "INDIRIZZO": "Via dalla Chiesa", "LAT": 40.68589444, "LON": 16.57596944 }, "geometry": { "type": "Point", "coordinates": [ 16.57596944, 40.68589444 ] } },
{ "type": "Feature", "properties": { "fid": 207.0, "NOME": "FERMATA 211", "INDIRIZZO": "Via Sallustio (retro Chiesa Evangelica)", "LAT": 40.68190833, "LON": 16.57725 }, "geometry": { "type": "Point", "coordinates": [ 16.57725, 40.68190833 ] } },
{ "type": "Feature", "properties": { "fid": 208.0, "NOME": "FERMATA 212", "INDIRIZZO": "Via Sallustio piazza", "LAT": 40.68013333, "LON": 16.57578333 }, "geometry": { "type": "Point", "coordinates": [ 16.57578333, 40.68013333 ] } },
{ "type": "Feature", "properties": { "fid": 209.0, "NOME": "FERMATA 213", "INDIRIZZO": "Via Mattei farmacia Sigma", "LAT": 40.67868333, "LON": 16.58080556 }, "geometry": { "type": "Point", "coordinates": [ 16.58080556, 40.678683329999984 ] } },
{ "type": "Feature", "properties": { "fid": 210.0, "NOME": "FERMATA 214", "INDIRIZZO": "Via Cererie fronte distr. IP", "LAT": 40.675207, "LON": 16.600137 }, "geometry": { "type": "Point", "coordinates": [ 16.600137, 40.675207 ] } },
{ "type": "Feature", "properties": { "fid": 211.0, "NOME": "FERMATA 215", "INDIRIZZO": "Via Cererie civico 53", "LAT": 40.67476389, "LON": 16.60450833 }, "geometry": { "type": "Point", "coordinates": [ 16.60450833, 40.67476389 ] } },
{ "type": "Feature", "properties": { "fid": 212.0, "NOME": "FERMATA 216", "INDIRIZZO": "Via Rosselli civico 95", "LAT": 40.67343889, "LON": 16.60601667 }, "geometry": { "type": "Point", "coordinates": [ 16.60601667, 40.673438889999986 ] } },
{ "type": "Feature", "properties": { "fid": 213.0, "NOME": "FERMATA 217", "INDIRIZZO": "Via Rosselli civico 93", "LAT": 40.67191389, "LON": 16.60594722 }, "geometry": { "type": "Point", "coordinates": [ 16.60594722, 40.67191389 ] } },
{ "type": "Feature", "properties": { "fid": 214.0, "NOME": "FERMATA 218", "INDIRIZZO": "Via A. di Francia. Fr. DPL Enel", "LAT": 40.65930556, "LON": 16.59800833 }, "geometry": { "type": "Point", "coordinates": [ 16.59800833, 40.65930556 ] } },
{ "type": "Feature", "properties": { "fid": 215.0, "NOME": "FERMATA 219", "INDIRIZZO": "Via Granulari Palumbo Motors", "LAT": 40.68326667, "LON": 16.57516111 }, "geometry": { "type": "Point", "coordinates": [ 16.57516111, 40.68326667 ] } },
{ "type": "Feature", "properties": { "fid": 216.0, "NOME": "FERMATA 220", "INDIRIZZO": "Via Granulari incr. Via delle Fiere", "LAT": 40.679925, "LON": 16.57439722 }, "geometry": { "type": "Point", "coordinates": [ 16.57439722, 40.679925 ] } },
{ "type": "Feature", "properties": { "fid": 217.0, "NOME": "FERMATA 221", "INDIRIZZO": "Via Granulari fronte Auto Ok", "LAT": 40.67745556, "LON": 16.574975 }, "geometry": { "type": "Point", "coordinates": [ 16.574975, 40.677455559999984 ] } },
{ "type": "Feature", "properties": { "fid": 218.0, "NOME": "FERMATA 222", "INDIRIZZO": "Via delle Arti Santantonio", "LAT": 40.67311111, "LON": 16.57330556 }, "geometry": { "type": "Point", "coordinates": [ 16.57330556, 40.67311111 ] } },
{ "type": "Feature", "properties": { "fid": 219.0, "NOME": "FERMATA 223", "INDIRIZZO": "Via 1 Maggio", "LAT": 40.67133056, "LON": 16.57468056 }, "geometry": { "type": "Point", "coordinates": [ 16.57468056, 40.67133056 ] } },
{ "type": "Feature", "properties": { "fid": 220.0, "NOME": "FERMATA 224", "INDIRIZZO": "Via Giardinelle Loperfido", "LAT": 40.67222222, "LON": 16.57628889 }, "geometry": { "type": "Point", "coordinates": [ 16.57628889, 40.67222222 ] } },
{ "type": "Feature", "properties": { "fid": 221.0, "NOME": "FERMATA 225", "INDIRIZZO": "Via La Martella Ediltermica D Ercole", "LAT": 40.67299167, "LON": 16.58548056 }, "geometry": { "type": "Point", "coordinates": [ 16.58548056, 40.67299167 ] } },
{ "type": "Feature", "properties": { "fid": 222.0, "NOME": "FERMATA 226", "INDIRIZZO": "Via Lazzazzera fr. Datacontact", "LAT": 40.67356111, "LON": 16.59874167 }, "geometry": { "type": "Point", "coordinates": [ 16.59874167, 40.67356111 ] } },
{ "type": "Feature", "properties": { "fid": 223.0, "NOME": "FERMATA 227", "INDIRIZZO": "Via Lazzazzera S.M. Pascoli", "LAT": 40.67231389, "LON": 16.59753056 }, "geometry": { "type": "Point", "coordinates": [ 16.59753056, 40.67231389 ] } },
{ "type": "Feature", "properties": { "fid": 224.0, "NOME": "FERMATA 228", "INDIRIZZO": "Via La Malfa Tabaccaio", "LAT": 40.66763333, "LON": 16.60025833 }, "geometry": { "type": "Point", "coordinates": [ 16.60025833, 40.66763333 ] } },
{ "type": "Feature", "properties": { "fid": 225.0, "NOME": "FERMATA 229", "INDIRIZZO": "Via La Malfa BCC", "LAT": 40.66866667, "LON": 16.599575 }, "geometry": { "type": "Point", "coordinates": [ 16.599575, 40.66866667 ] } },
{ "type": "Feature", "properties": { "fid": 226.0, "NOME": "FERMATA 230", "INDIRIZZO": "Via Dante incr. Via Olivetti", "LAT": 40.675624, "LON": 16.589237 }, "geometry": { "type": "Point", "coordinates": [ 16.589237, 40.675624 ] } },
{ "type": "Feature", "properties": { "fid": 227.0, "NOME": "FERMATA 231", "INDIRIZZO": "Via Fermi", "LAT": 40.67616667, "LON": 16.58246667 }, "geometry": { "type": "Point", "coordinates": [ 16.58246667, 40.67616667 ] } },
{ "type": "Feature", "properties": { "fid": 228.0, "NOME": "FERMATA 232", "INDIRIZZO": "Via Fermi", "LAT": 40.67471389, "LON": 16.58193889 }, "geometry": { "type": "Point", "coordinates": [ 16.58193889, 40.67471389 ] } },
{ "type": "Feature", "properties": { "fid": 229.0, "NOME": "FERMATA 233", "INDIRIZZO": "Ospedale Capolinea", "LAT": 40.65540833, "LON": 16.61302778 }, "geometry": { "type": "Point", "coordinates": [ 16.61302778, 40.65540833 ] } },
{ "type": "Feature", "properties": { "fid": 230.0, "NOME": "FERMATA 234", "INDIRIZZO": "Ingresso Ospedale", "LAT": 40.65415278, "LON": 16.61157222 }, "geometry": { "type": "Point", "coordinates": [ 16.61157222, 40.65415278 ] } },
{ "type": "Feature", "properties": { "fid": 231.0, "NOME": "FERMATA 235", "INDIRIZZO": "Ospedale", "LAT": 40.65536389, "LON": 16.61299722 }, "geometry": { "type": "Point", "coordinates": [ 16.61299722, 40.65536389 ] } },
{ "type": "Feature", "properties": { "fid": 232.0, "NOME": "FERMATA 236", "INDIRIZZO": "Via Olivetti fronte Piazza Olmi", "LAT": 40.67426389, "LON": 16.58766389 }, "geometry": { "type": "Point", "coordinates": [ 16.58766389, 40.67426389 ] } },
{ "type": "Feature", "properties": { "fid": 233.0, "NOME": "FERMATA 237", "INDIRIZZO": "Via La Martella Distr. IP", "LAT": 40.67341667, "LON": 16.58588889 }, "geometry": { "type": "Point", "coordinates": [ 16.58588889, 40.67341667 ] } },
{ "type": "Feature", "properties": { "fid": 234.0, "NOME": "FERMATA 238", "INDIRIZZO": "Via La Martella BPB", "LAT": 40.67138333, "LON": 16.58382778 }, "geometry": { "type": "Point", "coordinates": [ 16.58382778, 40.67138333 ] } },
{ "type": "Feature", "properties": { "fid": 235.0, "NOME": "FERMATA 239", "INDIRIZZO": "Via La Martella Distr. carb. Il Baretto", "LAT": 40.66993889, "LON": 16.58075 }, "geometry": { "type": "Point", "coordinates": [ 16.58075, 40.66993889 ] } },
{ "type": "Feature", "properties": { "fid": 236.0, "NOME": "FERMATA 240", "INDIRIZZO": "Via La Martella Villa Grande", "LAT": 40.66959167, "LON": 16.57656667 }, "geometry": { "type": "Point", "coordinates": [ 16.57656667, 40.66959167 ] } },
{ "type": "Feature", "properties": { "fid": 237.0, "NOME": "FERMATA 241", "INDIRIZZO": "Via La Martella Azzone Futura 3000 n.241", "LAT": 40.66848333, "LON": 16.57155278 }, "geometry": { "type": "Point", "coordinates": [ 16.57155278, 40.66848333 ] } },
{ "type": "Feature", "properties": { "fid": 238.0, "NOME": "FERMATA 242", "INDIRIZZO": "Via La Martella", "LAT": 40.66416389, "LON": 16.56836111 }, "geometry": { "type": "Point", "coordinates": [ 16.56836111, 40.66416389 ] } },
{ "type": "Feature", "properties": { "fid": 239.0, "NOME": "FERMATA 243", "INDIRIZZO": "Via La Martella", "LAT": 40.65701111, "LON": 16.55193056 }, "geometry": { "type": "Point", "coordinates": [ 16.55193056, 40.65701111 ] } },
{ "type": "Feature", "properties": { "fid": 240.0, "NOME": "FERMATA 244", "INDIRIZZO": "Via La Martella", "LAT": 40.65701389, "LON": 16.54865833 }, "geometry": { "type": "Point", "coordinates": [ 16.54865833, 40.65701389 ] } },
{ "type": "Feature", "properties": { "fid": 241.0, "NOME": "FERMATA 245", "INDIRIZZO": "Via La Martella", "LAT": 40.65731667, "LON": 16.54745833 }, "geometry": { "type": "Point", "coordinates": [ 16.54745833, 40.65731667 ] } },
{ "type": "Feature", "properties": { "fid": 242.0, "NOME": "FERMATA 246", "INDIRIZZO": "Via La Martella", "LAT": 40.65787778, "LON": 16.54548333 }, "geometry": { "type": "Point", "coordinates": [ 16.54548333, 40.65787778 ] } },
{ "type": "Feature", "properties": { "fid": 243.0, "NOME": "FERMATA 247", "INDIRIZZO": "Via La Martella", "LAT": 40.65828611, "LON": 16.54400556 }, "geometry": { "type": "Point", "coordinates": [ 16.54400556, 40.65828611 ] } },
{ "type": "Feature", "properties": { "fid": 244.0, "NOME": "FERMATA 248", "INDIRIZZO": "Via Arno La Martella", "LAT": 40.65971944, "LON": 16.53979722 }, "geometry": { "type": "Point", "coordinates": [ 16.53979722, 40.659719440000011 ] } },
{ "type": "Feature", "properties": { "fid": 245.0, "NOME": "FERMATA 249", "INDIRIZZO": "Via Arno La Martella", "LAT": 40.66049722, "LON": 16.53836111 }, "geometry": { "type": "Point", "coordinates": [ 16.53836111, 40.66049722 ] } },
{ "type": "Feature", "properties": { "fid": 246.0, "NOME": "FERMATA 250", "INDIRIZZO": "Via Vesuvio La Martella", "LAT": 40.66213889, "LON": 16.53743056 }, "geometry": { "type": "Point", "coordinates": [ 16.53743056, 40.66213889 ] } },
{ "type": "Feature", "properties": { "fid": 247.0, "NOME": "FERMATA 251", "INDIRIZZO": "Via Monterosa La Martella", "LAT": 40.66506667, "LON": 16.53605833 }, "geometry": { "type": "Point", "coordinates": [ 16.53605833, 40.66506667 ] } },
{ "type": "Feature", "properties": { "fid": 248.0, "NOME": "FERMATA 252", "INDIRIZZO": "Ecopolis Via Mantegna", "LAT": 40.66626667, "LON": 16.53406111 }, "geometry": { "type": "Point", "coordinates": [ 16.53406111, 40.66626667 ] } },
{ "type": "Feature", "properties": { "fid": 249.0, "NOME": "FERMATA 253", "INDIRIZZO": "Ecopolis Via Raffaello Sanzio", "LAT": 40.66510833, "LON": 16.53407222 }, "geometry": { "type": "Point", "coordinates": [ 16.53407222, 40.66510833000001 ] } },
{ "type": "Feature", "properties": { "fid": 250.0, "NOME": "FERMATA 254", "INDIRIZZO": "Ecopolis Via Raffaello Sanzio", "LAT": 40.66322778, "LON": 16.53366111 }, "geometry": { "type": "Point", "coordinates": [ 16.53366111, 40.66322778 ] } },
{ "type": "Feature", "properties": { "fid": 251.0, "NOME": "FERMATA 255", "INDIRIZZO": "Via Monterosa La Martella", "LAT": 40.66249167, "LON": 16.53541667 }, "geometry": { "type": "Point", "coordinates": [ 16.53541667, 40.66249167 ] } },
{ "type": "Feature", "properties": { "fid": 252.0, "NOME": "FERMATA 256", "INDIRIZZO": "Via Monviso La Martella", "LAT": 40.66156389, "LON": 16.53221389 }, "geometry": { "type": "Point", "coordinates": [ 16.53221389, 40.66156389 ] } },
{ "type": "Feature", "properties": { "fid": 253.0, "NOME": "FERMATA 257", "INDIRIZZO": "Via Tagliamento La Martella", "LAT": 40.66038889, "LON": 16.53119444 }, "geometry": { "type": "Point", "coordinates": [ 16.53119444, 40.66038889 ] } },
{ "type": "Feature", "properties": { "fid": 254.0, "NOME": "FERMATA 258", "INDIRIZZO": "Via Arno La Martella", "LAT": 40.65976944, "LON": 16.53330556 }, "geometry": { "type": "Point", "coordinates": [ 16.53330556, 40.65976944 ] } },
{ "type": "Feature", "properties": { "fid": 255.0, "NOME": "FERMATA 259", "INDIRIZZO": "Piazza Monti Sabotini La Martella", "LAT": 40.66053611, "LON": 16.53563611 }, "geometry": { "type": "Point", "coordinates": [ 16.53563611, 40.66053611 ] } },
{ "type": "Feature", "properties": { "fid": 256.0, "NOME": "FERMATA 260", "INDIRIZZO": "Via Arno La Martella", "LAT": 40.65955833, "LON": 16.53993611 }, "geometry": { "type": "Point", "coordinates": [ 16.53993611, 40.65955833 ] } },
{ "type": "Feature", "properties": { "fid": 257.0, "NOME": "FERMATA 261", "INDIRIZZO": "Via La Martella", "LAT": 40.65865, "LON": 16.54238611 }, "geometry": { "type": "Point", "coordinates": [ 16.54238611, 40.65865 ] } },
{ "type": "Feature", "properties": { "fid": 258.0, "NOME": "FERMATA 262", "INDIRIZZO": "Via La Martella", "LAT": 40.65732778, "LON": 16.54721667 }, "geometry": { "type": "Point", "coordinates": [ 16.54721667, 40.65732778 ] } },
{ "type": "Feature", "properties": { "fid": 259.0, "NOME": "FERMATA 263", "INDIRIZZO": "Via La Martella", "LAT": 40.65687222, "LON": 16.55032222 }, "geometry": { "type": "Point", "coordinates": [ 16.55032222, 40.65687222 ] } },
{ "type": "Feature", "properties": { "fid": 260.0, "NOME": "FERMATA 264", "INDIRIZZO": "Via La Martella Fronte Villa Grande", "LAT": 40.66960833, "LON": 16.57710556 }, "geometry": { "type": "Point", "coordinates": [ 16.57710556, 40.66960833 ] } },
{ "type": "Feature", "properties": { "fid": 261.0, "NOME": "FERMATA 265", "INDIRIZZO": "Via La Martella Fronte Distr. carb. Il Baretto", "LAT": 40.66984444, "LON": 16.58075556 }, "geometry": { "type": "Point", "coordinates": [ 16.58075556, 40.66984444 ] } },
{ "type": "Feature", "properties": { "fid": 262.0, "NOME": "FERMATA 266", "INDIRIZZO": "Via La Martella Casa Berloni", "LAT": 40.67141944, "LON": 16.58401111 }, "geometry": { "type": "Point", "coordinates": [ 16.58401111, 40.67141944 ] } },
{ "type": "Feature", "properties": { "fid": 263.0, "NOME": "FERMATA 267", "INDIRIZZO": "Via Olivetti Piazza Olmi", "LAT": 40.67429444, "LON": 16.58815278 }, "geometry": { "type": "Point", "coordinates": [ 16.58815278, 40.67429444 ] } },
{ "type": "Feature", "properties": { "fid": 264.0, "NOME": "FERMATA 268", "INDIRIZZO": "Via Manzoni Incr. Largo De Gasperi", "LAT": 40.674942, "LON": 16.594748 }, "geometry": { "type": "Point", "coordinates": [ 16.594748, 40.674942 ] } },
{ "type": "Feature", "properties": { "fid": 265.0, "NOME": "FERMATA 269", "INDIRIZZO": "Via Gravina Hotel del Campo", "LAT": 40.68060278, "LON": 16.5844 }, "geometry": { "type": "Point", "coordinates": [ 16.5844, 40.68060278 ] } },
{ "type": "Feature", "properties": { "fid": 266.0, "NOME": "FERMATA 270", "INDIRIZZO": "Via Gravina Farmacia Motta", "LAT": 40.68145556, "LON": 16.58156667 }, "geometry": { "type": "Point", "coordinates": [ 16.58156667, 40.68145556 ] } },
{ "type": "Feature", "properties": { "fid": 267.0, "NOME": "FERMATA 271", "INDIRIZZO": "Via Dante Fr. Pizzeria I 2 Re", "LAT": 40.67771667, "LON": 16.58741944 }, "geometry": { "type": "Point", "coordinates": [ 16.58741944, 40.67771667 ] } },
{ "type": "Feature", "properties": { "fid": 268.0, "NOME": "FERMATA 272", "INDIRIZZO": "Viale Nazioni Unite civico 31", "LAT": 40.66785, "LON": 16.5943 }, "geometry": { "type": "Point", "coordinates": [ 16.5943, 40.66785 ] } },
{ "type": "Feature", "properties": { "fid": 269.0, "NOME": "FERMATA 273", "INDIRIZZO": "Fraz. Timmari", "LAT": 40.66554444, "LON": 16.48533333 }, "geometry": { "type": "Point", "coordinates": [ 16.48533333, 40.66554444 ] } },
{ "type": "Feature", "properties": { "fid": 270.0, "NOME": "FERMATA 274", "INDIRIZZO": "Fraz. Timmari", "LAT": 40.65666667, "LON": 16.47370833 }, "geometry": { "type": "Point", "coordinates": [ 16.47370833, 40.65666667 ] } },
{ "type": "Feature", "properties": { "fid": 271.0, "NOME": "FERMATA 275", "INDIRIZZO": "Fraz. Timmari", "LAT": 40.65359722, "LON": 16.46886667 }, "geometry": { "type": "Point", "coordinates": [ 16.46886667, 40.65359722 ] } },
{ "type": "Feature", "properties": { "fid": 272.0, "NOME": "FERMATA 276", "INDIRIZZO": "Fraz. Timmari", "LAT": 40.65758056, "LON": 16.47746667 }, "geometry": { "type": "Point", "coordinates": [ 16.47746667, 40.65758056 ] } },
{ "type": "Feature", "properties": { "fid": 273.0, "NOME": "FERMATA 277", "INDIRIZZO": "Fraz. Timmari", "LAT": 40.66552778, "LON": 16.48539722 }, "geometry": { "type": "Point", "coordinates": [ 16.48539722, 40.66552778 ] } },
{ "type": "Feature", "properties": { "fid": 274.0, "NOME": "FERMATA 278", "INDIRIZZO": "Borgo Picciano B", "LAT": 40.692875, "LON": 16.45900278 }, "geometry": { "type": "Point", "coordinates": [ 16.45900278, 40.692875 ] } },
{ "type": "Feature", "properties": { "fid": 275.0, "NOME": "FERMATA 279", "INDIRIZZO": "Borgo Picciano B", "LAT": 40.69465833, "LON": 16.45715556 }, "geometry": { "type": "Point", "coordinates": [ 16.45715556, 40.69465833 ] } },
{ "type": "Feature", "properties": { "fid": 276.0, "NOME": "FERMATA 280", "INDIRIZZO": "Borgo Picciano B", "LAT": 40.69365833, "LON": 16.45838056 }, "geometry": { "type": "Point", "coordinates": [ 16.45838056, 40.69365833 ] } },
{ "type": "Feature", "properties": { "fid": 277.0, "NOME": "FERMATA 281", "INDIRIZZO": "Borgo Picciano A", "LAT": 40.70990556, "LON": 16.48648056 }, "geometry": { "type": "Point", "coordinates": [ 16.48648056, 40.70990556 ] } },
{ "type": "Feature", "properties": { "fid": 278.0, "NOME": "FERMATA 282", "INDIRIZZO": "Borgo Picciano A", "LAT": 40.70884444, "LON": 16.48763333 }, "geometry": { "type": "Point", "coordinates": [ 16.48763333, 40.70884444 ] } },
{ "type": "Feature", "properties": { "fid": 279.0, "NOME": "FERMATA 283", "INDIRIZZO": "Picciano Santuario", "LAT": 40.69773611, "LON": 16.47353056 }, "geometry": { "type": "Point", "coordinates": [ 16.47353056, 40.69773611 ] } },
{ "type": "Feature", "properties": { "fid": 280.0, "NOME": "FERMATA 284", "INDIRIZZO": "Via Granulari", "LAT": 40.68314444, "LON": 16.57517222 }, "geometry": { "type": "Point", "coordinates": [ 16.57517222, 40.68314444 ] } },
{ "type": "Feature", "properties": { "fid": 281.0, "NOME": "FERMATA 285", "INDIRIZZO": "Borgo Venusio Centro Commerciale", "LAT": 40.72188889, "LON": 16.57414167 }, "geometry": { "type": "Point", "coordinates": [ 16.57414167, 40.72188889 ] } },
{ "type": "Feature", "properties": { "fid": 282.0, "NOME": "FERMATA 286", "INDIRIZZO": "Borgo Venusio Hilton Hotel", "LAT": 40.72055, "LON": 16.58038 }, "geometry": { "type": "Point", "coordinates": [ 16.58038, 40.72055 ] } },
{ "type": "Feature", "properties": { "fid": 283.0, "NOME": "FERMATA 287", "INDIRIZZO": "Borgo Venusio Chiesa", "LAT": 40.72186389, "LON": 16.58058611 }, "geometry": { "type": "Point", "coordinates": [ 16.58058611, 40.72186389 ] } },
{ "type": "Feature", "properties": { "fid": 284.0, "NOME": "FERMATA 288", "INDIRIZZO": "Borgo Venusio Via Germania", "LAT": 40.72311389, "LON": 16.57841389 }, "geometry": { "type": "Point", "coordinates": [ 16.57841389, 40.72311389 ] } },
{ "type": "Feature", "properties": { "fid": 285.0, "NOME": "FERMATA 289", "INDIRIZZO": "Borgo Venusio Villaggio", "LAT": 40.72544444, "LON": 16.57506111 }, "geometry": { "type": "Point", "coordinates": [ 16.57506111, 40.72544444 ] } },
{ "type": "Feature", "properties": { "fid": 286.0, "NOME": "FERMATA 290", "INDIRIZZO": "Borgo Venusio Via Germania", "LAT": 40.72304444, "LON": 16.57838889 }, "geometry": { "type": "Point", "coordinates": [ 16.57838889, 40.72304444 ] } },
{ "type": "Feature", "properties": { "fid": 287.0, "NOME": "FERMATA 291", "INDIRIZZO": "Borgo Venusio Fr. Hilton Hotel", "LAT": 40.72038056, "LON": 16.58027778 }, "geometry": { "type": "Point", "coordinates": [ 16.58027778, 40.72038056 ] } },
{ "type": "Feature", "properties": { "fid": 288.0, "NOME": "FERMATA 292", "INDIRIZZO": "Via Collodi", "LAT": 40.67018889, "LON": 16.59395833 }, "geometry": { "type": "Point", "coordinates": [ 16.59395833, 40.67018889 ] } },
{ "type": "Feature", "properties": { "fid": 289.0, "NOME": "FERMATA 293", "INDIRIZZO": "Via Moro. fronte Ist. Comm.", "LAT": 40.66461111, "LON": 16.59876667 }, "geometry": { "type": "Point", "coordinates": [ 16.59876667, 40.66461111 ] } },
{ "type": "Feature", "properties": { "fid": 290.0, "NOME": "FERMATA 294", "INDIRIZZO": "Via Moro Tribunale", "LAT": 40.66565, "LON": 16.60020833 }, "geometry": { "type": "Point", "coordinates": [ 16.60020833, 40.66565 ] } },
{ "type": "Feature", "properties": { "fid": 291.0, "NOME": "FERMATA 295", "INDIRIZZO": "Via Moro Torraca", "LAT": 40.66752778, "LON": 16.60194444 }, "geometry": { "type": "Point", "coordinates": [ 16.60194444, 40.66752778 ] } },
{ "type": "Feature", "properties": { "fid": 292.0, "NOME": "FERMATA 296", "INDIRIZZO": "Via Sallustio Il Circo", "LAT": 40.68068611, "LON": 16.57795556 }, "geometry": { "type": "Point", "coordinates": [ 16.57795556, 40.680686109999989 ] } },
{ "type": "Feature", "properties": { "fid": 293.0, "NOME": "FERMATA 297", "INDIRIZZO": "S.S.99", "LAT": 40.696884, "LON": 16.590278 }, "geometry": { "type": "Point", "coordinates": [ 16.590278, 40.696884 ] } },
{ "type": "Feature", "properties": { "fid": 294.0, "NOME": "FERMATA 300", "INDIRIZZO": "Via Gravina Chiesa Evangelica", "LAT": 40.68238889, "LON": 16.577475 }, "geometry": { "type": "Point", "coordinates": [ 16.577475, 40.68238889 ] } }
]
}
